{
    "offset": 0,
    "title": "Resources: Health Care | rosecityresource.org",
    "healthcare": [
        {
            "zip": "97204-1810",
            "phone": "503-988-3646",
            "address": "421 SW Oak St. Ste. 510",
            "name": "Aging and Disability Services",
            "notes": "Provides information assistance and all services to support all seniors and people with disabilities and their caregivers in asses their needs. Identify services available for meeting their needs and linking the person/caregiver to those services.",
            "url": "http://www.adrcoforegon.org",
            "city": "Portland"
        },
        {
            "zip": "97205-3620",
            "phone": "503-494-4745",
            "address": "621 SW Alder St. Suite 520",
            "hours": "9a-6:30p, M-Thurs; 9a-5p, Friday.",
            "notes": "Monday-Friday. Drug and alcohol treatment, free gambling treatment program, mental health services.",
            "url": "http://www.ohsuhealth.com/counseling",
            "city": "Portland"
        },
        {
            "zip": "97206-1600",
            "phone": "503-674-7777",
            "address": "4212 SE Division St.",
            "hours": "7 a.m.-10:00 p.m. 7 days a week.",
            "name": "Cascadia Urgent Walk-in Clinic/Referral service",
            "notes": "Mental health services for adults, children, and families; walk-ins welcome. Access information and referral line for Cascadia's services in housing, recovery and assistance.",
            "url": "http://www.cascadiabhc.org",
            "city": "Portland"
        },
        {
            "zip": "97225",
            "phone": "503-944-5000 Local 877-703-8880 Toll Free",
            "address": "10300 SW Eastridge St",
            "hours": "Call for Assessment.",
            "name": "Cedar Hills Hospital",
            "notes": "Cedar Hills Hospital is a private psychiatric hospital specializing in the treatment of mental health and chemical dependency. Cedar Hills provides Inpatient, Partial Hospitalization and Intensive Outpatient Programs. All major insurance, Medicare & TRICARE are accepted. FREE Confidential Assessment 24/7.",
            "url": "http://www.cedarhillshospital.com",
            "city": "Beaverton"
        },
        {
            "zip": "97211-2623",
            "phone": "503-284-5239",
            "address": "27 NE Killingsworth St.",
            "hours": "Our hours are Mon-Fri., 9:00 to 5:00. We have physicians 5 days per week. Appointments are scheduled from 9:00 to 3:30. Walk-ins are available on Tuesdays, Thursdays, and Fridays.",
            "name": "Children's Community Clinic",
            "notes": "Health center for low income families. Sliding scale to age 21 only, for the under/uninsured only. Accepts Oregon Health Plan and other insurance.",
            "url": "http://www.childrenscommunityclinic.org",
            "city": "Portland"
        },
        {
            "zip": "97206",
            "phone": "503-771-7914",
            "address": "8800 SE 80th (at Cornwell, next to Johnson Creek Fred Meyer)",
            "hours": "1-4:30 p.m. Tue & Thurs.",
            "name": "Clackamas Service Center",
            "notes": "Outside-in health van.",
            "url": "http://www.clackamas.us/socialservices/rguide/ccss0070aa.html",
            "city": "Portland"
        },
        {
            "phone": "503-546-4991",
            "hours": "Hours: 8:30 a.m.-5 p.m. Mon.-Fri",
            "name": "Coalition of Community Clinics",
            "notes": [
                "Multiple locations",
                "Information and/or referral for community health clinics in Portland metro area. Please call or visit website to recieve more infomation."
            ],
            "url": "http://www.coalitionclinics.org"
        },
        {
            "hours": "Transition Projects Inc.: 435 NW Glisan, 1:30-3 p.m., Monday New Avenues for Youth: 314 SW 9th Ave. 8:30 a.m.-12:30 p.m. Tuesdays 12:30-4:30 Thursdays Salvation Army: 131 SW Ankeny, 1:15 p.m.-3:15 p.m. Wednesday. Greenhouse: 820 SW Oak, youth only, 3:30 p.m.-5:30 p.m., Wednesday.",
            "name": "County Health Nurse",
            "notes": "Itinerant on-site medical care specifically for TB screening; flu, pneumonia, and tetanus vaccinations. Available to clients at various locations."
        },
        {
            "zip": "97205-2710",
            "phone": "503-224-3435",
            "address": "511 SW 10th Ave #905",
            "hours": "8:30 a.m.-5 p.m. Mon.-Fri.; 8 a.m.-2 p.m. Sat.",
            "name": "Downtown Women's Center",
            "notes": "Free pregnancy testing, abortions, counseling; parental consent needed for persons under 15. Birth control options counseling; Emergency contraception is also available at the clinic.",
            "url": "http://www.downtownwomenscenter.com",
            "city": "Portland"
        },
        {
            "zip": "97123",
            "phone": "503-846-4919",
            "address": "266 W Main St.",
            "hours": "Hillsboro: 5 p.m. Mon and Thurs; Tigard: 5 p.m. Wed",
            "name": "Essential Health Clinic",
            "notes": "Offers free urgent health care to uninsured and/or low income individuals and families in Washington County. Walk-in patients accepted three times a week at the two locations and medical services provided free of charge. Se hable espanol.",
            "url": "http://www.essentialhealthclinic.org",
            "city": "Hillsboro"
        },
        {
            "phone": "503-846-4919",
            "hours": "Hillsboro: 5 p.m. Mon and Thurs; Tigard: 5 p.m. Wed",
            "name": "Essential Health Clinic",
            "notes": "Offers free urgent health care to uninsured and/or low income individuals and families in Washington County. Walk-in patients accepted three times a week at the two locations and medical services provided free of charge. Se hable espanol.",
            "url": "http://www.essentialhealthclinic.org"
        },
        {
            "zip": "97233",
            "phone": "503-489-0567",
            "address": "18000 SE Stark St",
            "hours": "Call for hours.",
            "name": "Good News Community Health Center",
            "notes": "Blood pressure screening, prescription assistance, and diabtes clinic. Uninsured Clackamas residents welcome.",
            "city": "Portland"
        },
        {
            "phone": "503-223-2213",
            "address": "315 SW 4th Ave.",
            "hours": "Mon-Fri. 7:30 a.m. - 7 p.m., Closed 12:30- 2 p.m. Last appointment at 6 p.m.",
            "name": "Health Centers of UWS",
            "notes": "Sliding fee services by interns.",
            "url": "http://www.uws.edu",
            "city": "Portland"
        },
        {
            "zip": "97218",
            "phone": "503-802-7389",
            "address": "6736 NE Killingsworth (Baltazar Oritz Community Center)",
            "hours": "Baltazar Ortiz Community Center: 6736 NE Killingsworth, 1st Thursday, 11a.m.-1p.m.",
            "name": "Josiah Hill III Clinic",
            "notes": "Lead poisoning prevention counseling and free testing for children under 6 and nursing and pregnant mothers. Education and resources for families with small children living in any dwellings. Mobile blood lead testing available. For Schedule of clinics please go to the web site.",
            "url": "http://www.jhillclinic.org",
            "city": "Portland"
        },
        {
            "zip": "97212",
            "phone": "503-802-7389",
            "address": "77 NE Knott (Matt Dishman Community Center)",
            "hours": "Baltazar Ortiz Community Center: 6736 NE Killingsworth, 1st Thursday, 11a.m.-1p.m.",
            "name": "Josiah Hill III Clinic",
            "notes": "Lead poisoning prevention counseling and free testing for children under 6 and nursing and pregnant mothers. Education and resources for families with small children living in any dwellings. Mobile blood lead testing available. For Schedule of clinics please go to the web site.",
            "url": "http://www.jhillclinic.org",
            "city": "Portland"
        },
        {
            "zip": "97210-2906",
            "phone": "503-413-7074",
            "address": "1200 NW 23nd Ave.",
            "hours": "8 a.m. to 5 p.m. Monday-Friday.",
            "name": "Legacy Clinic at Good Samaritan",
            "notes": "General medicine, diabetes and pre/post surgery consultations by referral only. No pediatrics or obstetrics. Appointment only. Financial assistance availble to those who qualify.",
            "url": "http://www.lhs.org",
            "city": "Portland"
        },
        {
            "phone": "503-988-4888, 800-716-9769",
            "hours": "24-hour hotline.",
            "name": "Multnomah County Call Center",
            "notes": "24-hour, mental health resource and information referral, crisis support and mental health emergency assistance throughout Multnomah County. Mental health assistance and referral through Project Respond."
        },
        {
            "zip": "97227-1541",
            "phone": "503-230-9875",
            "address": "15 N. Morris St.",
            "hours": "8 a.m.-5 p.m. Monday-Friday; Evening medical clinic, 8a.m.-7:30p.m.",
            "name": "NARA Indian Health Clinic",
            "notes": "Full service medical clinic, free to tribal members and descendents (others by sliding scale, $20 min).",
            "url": "http://www.naranorthwest.org/clinic.htm",
            "city": "Portland"
        },
        {
            "zip": "97212",
            "phone": "503-287-4932",
            "address": "3030 Martain Luther King Jr. Blvd.",
            "hours": "5:30-8:30 p.m. Thursday.",
            "name": "North by Northeast Community Health",
            "notes": "Serves North and inner Northeast Portland. Health services (health history review, blood pressure screening, acute care for minor illness and injures) for low-income, uninsured adult residents of the 97211, 97212, 97217, 97227 and 97203 zip codes.",
            "url": "http://www.nxneclinic.org",
            "city": "Portland"
        },
        {
            "zip": "97205-3620",
            "phone": "503-494-4745",
            "address": "621 SW Alder St. Suite 520",
            "hours": "8:30 a.m.-5 p.m., Monday-Friday",
            "name": "OHSU Behavioral Health Clinic",
            "notes": "Outpatient psychiatry, drug and alcohol counseling and treatment, sliding scale fee.",
            "url": "http://www.ohsu.edu",
            "city": "Portland"
        },
        {
            "zip": "97209-3514",
            "phone": "503-228-4533",
            "address": "727 W Burnside St.",
            "hours": "8:00 am - 9:00 pm M-F primary care, 5-9 M-F and 1-5 Sat for urgent care.",
            "name": "Old Town Clinic",
            "notes": "Primary health care with integrated mental health services. Clinic open to new patients, OHP or Medicare. Sliding scale for qualified clients.",
            "url": "http://www.centralcityconcern.org/oldtown.htm",
            "city": "Portland"
        },
        {
            "zip": "97210",
            "phone": "503-802-8700",
            "address": "P.O. Box 10054",
            "hours": "7:00a.m.-6:00p.m., Mon.-Fri.",
            "notes": "Provides transportation to medical, counseling and dental appointments for OHP clients. Call ahead. OHP Client Advocate Services: 1-800-273-0557",
            "url": "http://www.oregon.gov/DHS/healthplan/",
            "city": "Portland"
        },
        {
            "phone": "1-800-723-3638",
            "hours": ": 8 a.m.-6 p.m. Mon.-Fri.",
            "name": "Oregon Safenet",
            "notes": "Referral services for health care, social, and mental health services."
        },
        {
            "zip": "97205-1703",
            "phone": "503-535-3800",
            "address": "1132 SW 13th Ave.",
            "hours": "8:30 a.m.-until full; Monday-Friday; additional 5:30 p.m. Monday and Wednesday until full. Every 2nd Tues. of month open at 12:00 noon.",
            "name": "Outside In",
            "url": "http://www.outside-in.org",
            "city": "Portland"
        },
        {
            "zip": "97202-4915",
            "phone": "503-230-1202, referrals 503-517-3590",
            "address": "5525 SE Milwaukie Blvd.",
            "hours": "9 a.m.-5 p.m. Monday-Friday.",
            "name": "Partnership Project",
            "notes": "HIV case management, advice on healthy options for prevention; risk reduction services. Referrals or help in coordinating medical, mental health and other social service systems.",
            "url": "http://www.ohsu.edu/partnership",
            "city": "Portland"
        },
        {
            "zip": "97005",
            "phone": "503-788-7273 / 1-888-576-PLAN (7526)",
            "address": "12220 SW First Suite 200",
            "hours": "8a.m.-6p.m. Mon.-Thurs.; 7:30a.m.-5p.m. Fri.; 9a.m.-5p.m. Sat. & Sun.",
            "name": "Planned Parenthood Beaverton Health Center",
            "notes": "Free or low-cost birth control and annual exams; Free pregnancy testing & options information; STD testing and treatment, HIV testing; Breast and cervical cancer screening; Vasectomy; Early abortion care. Appointments or walk-ins. All services are confidential and low cost. Funding programs available; we accept insurance.",
            "url": "http://www.plannedparenthood.org/health-center/centerDetails.asp?f=2410",
            "city": "Beaverton"
        },
        {
            "zip": "97212",
            "phone": "503-788-7273 / 1-888-576-PLAN (7526)",
            "address": "3727 NE Martin Luther King Jr. Blvd.",
            "hours": "Mon & Wed.;8:30 a.m.–6:30 p.m.; Tue., Thur., Fri & Sat 8:30 a.m.–4:30 p.m.; Sun Closed. Beaverton Health Center-12220 SW First, Suite 200: 8a.m.-6p.m. Mon.-Thurs.; 7:30a.m.-5p.m. Fri.; 9a.m.-5p.m. Sat. & Sun.",
            "name": "Planned Parenthood NE",
            "notes": "Free or low-cost birth control and annual exams; Free pregnancy testing & options information; STD testing and treatment, HIV testing; Breast and cervical cancer screening; Vasectomy; Early abortion care. Appointments or walk-ins. All services are confidential and low cost. Funding programs available; we accept insurance.",
            "url": "http://www.ppcw.org",
            "city": "Portland"
        },
        {
            "zip": "97206",
            "phone": "503-788-7273, 888-576-PLAN (7526)",
            "address": "3231 SE 50th Ave",
            "hours": "SE Clinic Mon. 8:30 a.m.-5:00 p.m; Tue & Thu 9:30 a.m.-6:00 p.m.; Wed 7:30 a.m.-5:00 p.m.; Fri.-Sun. 8:30 a.m. – 5:00 p.m. Beaverton Health Center-12220 SW First, Suite 200: 8a.m.-6p.m. Mon.-Thurs.; 7:30a.m.-5p.m. Fri.; 9a.m.-5p.m. Sat. & Sun.",
            "name": "Planned Parenthood SE",
            "notes": "Free or low-cost birth control and annual exams; Free pregnancy testing & options information; STD testing and treatment, HIV testing; Breast and cervical cancer screening; Vasectomy; Early abortion care. Appointments or walk-ins. All services are confidential and low cost. Funding programs available; we accept insurance.",
            "url": "http://www.ppcw.org",
            "city": "Portland"
        },
        {
            "zip": "97220-3051",
            "phone": "503-252-4589",
            "address": "11020 NE Halsey Blvd.",
            "hours": "9 a.m.-Noon., Monday-Friday;",
            "name": "Portland Adventist Community Services",
            "url": "http://www.portlandacs.org",
            "city": "Portland"
        },
        {
            "zip": "97214-1831",
            "phone": "503-238-5203",
            "address": "2901 E Burnside",
            "hours": "Monday-Friday 8:30 a.m. - 5 p.m.",
            "name": "Quest Center for Integrative Health",
            "notes": "Mental health services, osteopathic doctor on-site, support groups, yoga and meditation classes, community groups, naturopath and massage therapy.",
            "url": "http://www.quest-center.org",
            "city": "Portland"
        },
        {
            "zip": "97204",
            "phone": "503-239-1264",
            "address": "30 SW 2nd Ave.",
            "hours": "Harbor Lights hours: 1:15 p.m. - 3:15 p.m. Monday, Wednesday, and Friday; Mobile Medical Van hours: 1:15 p.m. - 3:15 p.m. Thursday.",
            "name": "Salvation Army",
            "url": "http://www.tsacascade.org",
            "city": "Portland"
        },
        {
            "zip": "97005",
            "phone": "For intakes and referrals call 503-591-9280 x214.",
            "address": "4585 SW 185th Ave.",
            "hours": "Call for Hours.",
            "name": "Sequoia Mental Health Services",
            "notes": "SMHS is based in Beaverton, Oregon and serves adults with severe and persistent mental illness in Washington County. Services provided by SMHS are funded through a variety of public funds including Medicaid, OHP, Medicare and some commercial insurance. Services can include Individual/Group Therapy, Family Education/Therapy, Case Management : Intensive Community Outreach, Alcohol and Drug Treatment, Psychiatric Medication Management, and Supported Employment.",
            "url": "http://sequoiamhs.org",
            "city": "Aloha"
        },
        {
            "zip": "97214-1317",
            "phone": "503-234-2028",
            "address": "330 SE 11th Ave.",
            "hours": "Doctor: 1:30 - 4 p.m. Tuesday and Thursday Social worker: 11 a.m. - 5 p.m. Monday, 2 - 5 p.m. Thursday",
            "notes": "Multnomah County medical doctor on-site 2 times a week for basic medical care. County social worker twice a week for face-to-face assistance.",
            "city": "Portland"
        },
        {
            "zip": "97204-2347",
            "phone": "503-988-3417",
            "address": "426 SW Stark 3rd floor",
            "name": "TB Program",
            "notes": "hours:8 a.m.-5 p.m. Mon, Wed-Fri. Information on getting TB screening tests, treatment and x-rays. Call for appointment.",
            "city": "Portland"
        },
        {
            "zip": "97209-3914",
            "phone": "503-223-2213",
            "address": "221 W Burnside St.",
            "hours": "Mon.-Fri., 7:30a.m.-6:00p.m.; Closed from 12:30p.m.-1:30p.m.",
            "notes": "Free services by interns from the Western States Chiropractic College.",
            "url": "http://www.uws.edu",
            "city": "Portland"
        },
        {
            "zip": "97005",
            "phone": "Beaverton Clinic: 503-352-6000; Hillsboro Clinic/OB: 503-601-7400; Hillsboro Dental: 503-352-2354; Cornelius Clinic: 503-359-8505; Cornelius Dental/Vision: 503-352-8543",
            "address": "2935 SW Cedar Hills Blvd (Beaverton Clinic)",
            "hours": "8 a.m.-5 p.m. Mon and Fri; 10 a.m.-7 p.m. Tues and Thurs; 9 a.m.-5 p.m. Wed.",
            "name": "Virginia Garcia Memorial Health Centers",
            "notes": "Provides high quality, comprehensive and culturally appropriate primary healthcare to the communities of Washington and Yamhill Counties with a special emphasis on migrant and seasonal farmworkers and others with barriers to receiving health care.",
            "url": "http://www.virginiagarcia.org",
            "city": "Beaverton"
        },
        {
            "zip": "97113",
            "phone": "Beaverton Clinic: 503-352-6000; Hillsboro Clinic/OB: 503-601-7400; Hillsboro Dental: 503-352-2354; Cornelius Clinic: 503-359-8505; Cornelius Dental/Vision: 503-352-8543",
            "address": "85 N 12th Ave (Cornelius Clinic)",
            "hours": "8 a.m.-5 p.m. Mon and Fri; 10 a.m.-7 p.m. Tues and Thurs; 9 a.m.-5 p.m. Wed.",
            "name": "Virginia Garcia Memorial Health Centers",
            "notes": "Provides high quality, comprehensive and culturally appropriate primary healthcare to the communities of Washington and Yamhill Counties with a special emphasis on migrant and seasonal farmworkers and others with barriers to receiving health care.",
            "url": "http://www.virginiagarcia.org",
            "city": "Cornelius"
        },
        {
            "zip": "97113",
            "phone": "Beaverton Clinic: 503-352-6000; Hillsboro Clinic/OB: 503-601-7400; Hillsboro Dental: 503-352-2354; Cornelius Clinic: 503-359-8505; Cornelius Dental/Vision: 503-352-8543",
            "address": "44 N 11th (Cornelius Dental/Vision)",
            "hours": "8 a.m.-5 p.m. Mon and Fri; 10 a.m.-7 p.m. Tues and Thurs; 9 a.m.-5 p.m. Wed.",
            "name": "Virginia Garcia Memorial Health Centers",
            "notes": "Provides high quality, comprehensive and culturally appropriate primary healthcare to the communities of Washington and Yamhill Counties with a special emphasis on migrant and seasonal farmworkers and others with barriers to receiving health care.",
            "url": "http://www.virginiagarcia.org",
            "city": "Cornelius"
        },
        {
            "zip": "97123",
            "phone": "Beaverton Clinic: 503-352-6000; Hillsboro Clinic/OB: 503-601-7400; Hillsboro Dental: 503-352-2354; Cornelius Clinic: 503-359-8505; Cornelius Dental/Vision: 503-352-8543",
            "address": "226 SE 8th Ave (Hillsboro Clinic and OB)",
            "hours": "8 a.m.-5 p.m. Mon and Fri; 10 a.m.-7 p.m. Tues and Thurs; 9 a.m.-5 p.m. Wed.",
            "name": "Virginia Garcia Memorial Health Centers",
            "notes": "Provides high quality, comprehensive and culturally appropriate primary healthcare to the communities of Washington and Yamhill Counties with a special emphasis on migrant and seasonal farmworkers and others with barriers to receiving health care.",
            "url": "http://www.virginiagarcia.org",
            "city": "Hillsboro"
        },
        {
            "zip": "97123",
            "phone": "Beaverton Clinic: 503-352-6000; Hillsboro Clinic/OB: 503-601-7400; Hillsboro Dental: 503-352-2354; Cornelius Clinic: 503-359-8505; Cornelius Dental/Vision: 503-352-8543",
            "address": "730 SE Oak St. Ste. AB (Hillsboro Dental)",
            "hours": "8 a.m.-5 p.m. Mon and Fri; 10 a.m.-7 p.m. Tues and Thurs; 9 a.m.-5 p.m. Wed.",
            "name": "Virginia Garcia Memorial Health Centers",
            "notes": "Provides high quality, comprehensive and culturally appropriate primary healthcare to the communities of Washington and Yamhill Counties with a special emphasis on migrant and seasonal farmworkers and others with barriers to receiving health care.",
            "url": "http://www.virginiagarcia.org",
            "city": "Hillsboro"
        },
        {
            "zip": "97209-3514",
            "phone": "503-489-1760",
            "address": "727 W Burnside",
            "hours": "Downtown: Thursdays, 6:30 p.m. - 8:00 p.m. (must make appointment); Gresham: Mondays, Wednesdays, starting at 6 p.m. (appointment necessary).",
            "name": "Wallace Medical Concern",
            "notes": "Basic urgent care: fevers, respiratory infections, bladder infections, ear infections, skin rashes. Dermatology and podiatry services twice a month. Must make appointment. Se Habla espanol.",
            "url": "http://www.wallacemedical.org",
            "city": "Portland"
        },
        {
            "zip": "97030",
            "phone": "503-489-1760",
            "address": "254 NW Burnside Rd",
            "hours": "Downtown: Thursdays, 6:30 p.m. - 8:00 p.m. (must make appointment); Gresham: Mondays, Wednesdays, starting at 6 p.m. (appointment necessary).",
            "name": "Wallace Medical Concern",
            "notes": "Basic urgent care: fevers, respiratory infections, bladder infections, ear infections, skin rashes. Dermatology and podiatry services twice a month. Must make appointment. Se Habla espanol.",
            "url": "http://www.wallacemedical.org",
            "city": "Gresham"
        },
        {
            "zip": "97030",
            "phone": "503-489-1760",
            "address": "254 NW Burnside Rd",
            "hours": "6:30 p.m.-8 p.m. No appointment necessary.",
            "notes": "Basic urgent care: fevers, respiratory infections, bladder infections, ear infections, skin rashes. Dermatology and podiatry services twice a month.",
            "url": "http://www.wallacemedical.org",
            "city": "Gresham"
        },
        {
            "zip": "97005",
            "phone": "503-846-8881",
            "address": "12550 SW 2nd Street",
            "hours": "Monday, Thursday & Friday: 8 a.m. – noon, 1 p.m. --5 p.m. Tuesday: 10 a.m. -- 2 p.m., 3 -- 7 p.m. Fourth Wednesday same as Monday. All other Wednesdays only 1 p.m. -- 5 p.m.",
            "notes": "The department of health clinic provides birth control, annual exams and tests for sexually transmitted disease, pregnancy and HIV with counseling and immunizations.",
            "city": "Beaverton"
        },
        {
            "zip": "97124",
            "phone": "503-846-8881",
            "address": "266 W. Main St.",
            "hours": "Monday, Thursday & Friday: 8 a.m. – noon, 1 p.m. -- 5 p.m. Tuesday: 10 am -- 2 p.m. Fourth Wednesday same as Monday. All other Wednesdays: 1 p.m. -- 5 p.m. only. Teen Clinic Only on Tuesday from 3 p.m. to 7 p.m.",
            "notes": "The Department of Health clinic provides birth control, annual exams, and tests for sexually transmitted disease, pregnancy, and HIV with counseling and immunizations. The health clinic also hosts a \"teen clinic\" on Tues.",
            "city": "Hillsboro"
        },
        {
            "zip": "97224",
            "address": "15296 SW Royalty Parkway",
            "hours": "Monday & Friday: 8 a.m. – noon, 1 p.m. -- 5 p.m. Tuesday: 10 a.m. -- 2 p.m. First Wednesday same as Monday. All other Wednesdays only 1 p.m. -- 5 p.m. Closed Thursday Teen Clinic Only on Tuesday from 3 to 7 p.m.",
            "city": "Portland"
        },
        {
            "zip": "97204-2347",
            "phone": "503-988-5558 (Intake) 503-988-5140 (Appointments)",
            "address": "426 SW Stark St. 5th floor",
            "hours": "8 a.m.-4:45 p.m. Monday-Friday.",
            "name": "Westside Health Clinic",
            "notes": "Sliding scale medical consultations; OHP Plus A and C only and Care Oregon. Se habla Espanol. Call for appointment.",
            "url": "http://www.co.multnomah.or.us/health/",
            "city": "Portland"
        },
        {
            "zip": "97209-1211",
            "phone": "503-226-3021",
            "address": "2023 NW Hoyt St.",
            "hours": "10 a.m.-3 p.m., Monday-Thursday. Closed to public on Fridays.",
            "name": "William Temple House",
            "notes": "Hygiene needs, six times a year; limited prescription assistance up to $150 three times a year. Must have ID and proof of address. Prescription assistance for psychotropic drugs only. Mental health counseling available for low income individuals.",
            "city": "Portland"
        }
    ],
    "pageUrl": "http://www.rosecityresource.org/resources/health-care"
}
