{
    "offset": 0,
    "title": "Resources: Youth Services | rosecityresource.org",
    "youth": [
        {
            "zip": "97205-1811",
            "phone": "503-432-3986",
            "address": "1635 SW Alder St.",
            "hours": "Open 365 days a year 24/7",
            "name": "Access Center (Janus Youth)",
            "notes": "Access Center (Janus Youth) 1635 SW Alder St. Portland OR 97205-1811 503-432-3986 http://www.janusyouth.org Open 365 days a year 24/7 Transit: MAX to PGE Park, 20, 51 Entry point into crisis shelter and other Continuum services: 24-hour screening and referral to the youth support network. Services for young people ages 15-23. After 6 p.m. call Porch Light (503) 224-5988.",
            "url": "http://www.janusyouth.org",
            "city": "Portland"
        },
        {
            "phone": "503-239-8101",
            "address": "424 NE 22nd",
            "name": "Albertina Kerr Center",
            "notes": "Albertina Kerr Center 424 NE 22nd Portland OR 503-239-8101 http://www.albetinakerr.org Transit: 12, 19, 20 Twenty-four hour care is provided for 52 children in group homes. Focus on basic life skills development, behavior management and socialization to live as independent adults. Youth ages 8 to 18.",
            "url": "http://www.albetinakerr.org",
            "city": "Portland"
        },
        {
            "zip": "97217-3151",
            "phone": "503-236-9389",
            "address": "911 N. Skidmore St.",
            "name": "Albina Early Head Start",
            "notes": "Albina Early Head Start 911 N. Skidmore St. Portland OR 97217-3151 503-236-9389 http://www.albinaparents.org Transit: 4 Fessenden and MAX yellow line. 7 a.m.-5:30 p.m. Monday-Friday. Low cost childcare to 3 years of age, family advocacy and basic needs for enrolled families.",
            "url": "http://www.albinaparents.org",
            "city": "Portland"
        },
        {
            "phone": "503-648-6646",
            "hours": "8:30 a.m.- 5 p.m.",
            "name": "Community Action",
            "notes": "Community Action 503-648-6646 8:30 a.m.- 5 p.m. Multiple services, including child care resources, Early Head Start and other services."
        },
        {
            "phone": "503-249-8582",
            "address": "6601 NE Killingsworth (new permanent location)",
            "hours": "8 a.m. - 4:30, Mon-Fri during school year.",
            "name": "Community Transitional School",
            "notes": "Community Transitional School 6601 NE Killingsworth (new permanent location) Portland OR 503-249-8582 http://www.transitionalschool.org 8 a.m. - 4:30, Mon-Fri during school year. Transit: 72 School for children who are homeless, in housing transition or at risk of school failure. Serves children from Pre-K to 8th grade. Call for availablity of transportation pick up/drop off.",
            "url": "http://www.transitionalschool.org",
            "city": "Portland"
        },
        {
            "zip": "97218-1404",
            "phone": "503-535-1181",
            "address": "4310 NE Killingsworth St.",
            "hours": "8 a.m. - 5 p.m. Mon-Fri",
            "name": "DePaul Treatment/Youth Program",
            "notes": "DePaul Treatment/Youth Program 4310 NE Killingsworth St. Portland OR 97218-1404 503-535-1181 http://www.depaultreatmentcenters.org 8 a.m. - 5 p.m. Mon-Fri Transit: 75, 72. Within the youth program, there are also gender-specific residential and outpatient programs that target youth ages 12 to 18. Alternative high school on site.",
            "url": "http://www.depaultreatmentcenters.org",
            "city": "Portland"
        },
        {
            "phone": "503-734-9299",
            "address": "909 SW 11th Ave",
            "hours": "Tuesday evening 6:00-8:00pm",
            "notes": "Dinner & a Movie 909 SW 11th Ave Portland OR 503-734-9299 Tuesday evening 6:00-8:00pm Transit: Max Red, Blue, Streetcar, 15, 51 Youth program for youths age 24 and younger, includes a hot meal.",
            "city": "Portland"
        },
        {
            "phone": "503-236-7235 (MWF) 503-238-5196 (Intake)",
            "name": "Elizabeth House",
            "notes": "Elizabeth House 503-236-7235 (MWF) 503-238-5196 (Intake) Maternity home for homeless women ages 14 to 22 years. Residents must be capable of independent group living and not have other children in their custody. Counceling and case-management services are provided."
        },
        {
            "phone": "503-241-4357",
            "address": "1410 SW Columbia",
            "name": "Fuego/Phoenix Rising Program",
            "notes": "Fuego/Phoenix Rising Program 1410 SW Columbia Portland OR 503-241-4357 http://www.gofuego.com Transit: Max Red, Blue, 6 Phoenix Rising Program offers mentorship and healing activities: theater, painting, music, yoga, among other programs. Case management; mediation services. Multicultural, at-risk youth are referred to Fuego from youth care system (schools, mental health agencies, foster care, etc.)",
            "url": "http://www.gofuego.com",
            "city": "Portland"
        },
        {
            "zip": "97232-2931",
            "phone": "503-233-8111",
            "address": "738 NE Davis St.",
            "hours": "24 hour access for runaways, after 8 p.m. speak to crisis intervention specialist.",
            "name": "Harry's Mother",
            "notes": "Harry's Mother 738 NE Davis St. Portland OR 97232-2931 503-233-8111 http://www.janusyouth.org 24 hour access for runaways, after 8 p.m. speak to crisis intervention specialist. Transit: 6, 12, 19, 20. Short term shelter for ages 9-17 for case management (12-bed shelter available). Family counseling for ages 13-17.",
            "url": "http://www.janusyouth.org",
            "city": "Portland"
        },
        {
            "zip": "97123-4135",
            "phone": "503-867-7762",
            "address": "494 E. Main St.",
            "hours": "6-8 p.m. Thursdays.",
            "name": "HomePlate",
            "notes": "HomePlate 494 E. Main St. Hillsboro OR 97123-4135 503-867-7762 http://www.homeplateyouth.com 6-8 p.m. Thursdays. Transit: MAX Blue Line Hillsoboro Central/SE 3rd Avenue Transit Center Station Meals, movies, showers, and socialization for youth ages 12-21. Located 2 blocks from the Hillsboro Transit Center, close to Max and Washington County bus lines.",
            "url": "http://www.homeplateyouth.com",
            "city": "Hillsboro"
        },
        {
            "zip": "97214",
            "phone": "503-239-6996",
            "address": "711 SE Ankeny",
            "hours": "9:00a.m.-5:00p.m., Mon.-Fri.",
            "name": "Insight Teen Parent Program",
            "notes": "Insight Teen Parent Program 711 SE Ankeny Portland OR 97214 503-239-6996 http://www.insightstpp.org 9:00a.m.-5:00p.m., Mon.-Fri. Transit: Trimet 12, 19, 20 9 a.m.-5 p.m. Monday-Friday. Services for teen parents and their partners who are under 21. Support for pregnant and parenting teens and their partners; case management; information and recreation. Call for screening/referral; no walk-ins.",
            "url": "http://www.insightstpp.org",
            "city": "Portland"
        },
        {
            "zip": "97232-4800",
            "phone": "503-232-2540, 866-608-1212",
            "address": "401 NE 19th Ave #200",
            "hours": "8:30a.m.-5p.m. Mon.-Fri.; closed for lunch during noon hour.",
            "name": "Juvenile Rights Project",
            "notes": "Juvenile Rights Project 401 NE 19th Ave #200 Portland OR 97232-4800 503-232-2540, 866-608-1212 http://www.jrplaw.org 8:30a.m.-5p.m. Mon.-Fri.; closed for lunch during noon hour. Protects the rights of children and youth by providing information, referrals and advice on juvenile law. Offers legal services; family mediation; juvenile court petitions for abuse and neglect allegations, college scholarships for Oregon foster children, emancipation procedures for teens, housing issues for minors; public school enrollment; school discipline, including suspension and expulsion; special education law and the rights of parents/ children; independent living programs; and investigation of access to mental health services covered by OHP.",
            "url": "http://www.jrplaw.org",
            "city": "Portland"
        },
        {
            "zip": "97211-5709",
            "phone": "503-282-3296",
            "address": "4941 NE 17th Ave.",
            "hours": "8 a.m.-6 p.m. Monday-Friday.",
            "name": "Lifeworks NW Umoja Center",
            "notes": "Lifeworks NW Umoja Center 4941 NE 17th Ave. Portland OR 97211-5709 503-282-3296 http://www.lifeworksnw.org 8 a.m.-6 p.m. Monday-Friday. Transit: 8, 72. Mental health services for persons ages 3-18. Specialized service for at-risk African-American males Ages 11-18. Promotes the positive development of youth; reducing violence and abusive behaviors. Addiction and mental health treatment.",
            "url": "http://www.lifeworksnw.org",
            "city": "Portland"
        },
        {
            "phone": "503-262-4100",
            "address": "14030 NE Sacramento St.",
            "hours": "8 a.m.- 4 p.m., Mon-Fri.",
            "name": "Multnomah Early Childhood Program",
            "notes": "Multnomah Early Childhood Program 14030 NE Sacramento St. Portland OR 503-262-4100 8 a.m.- 4 p.m., Mon-Fri. Special education program serving families with children with delays of disabilities up to age 5. Screening, evaluations and services are provided to families free of charge. Evaluation to determine eligibility. Community preschool for typically developing children ages 3-5. Outreach services provided throughout Multnomah County.",
            "city": "Portland"
        },
        {
            "zip": "97218",
            "phone": "Call for eligibility pre-screen. (503) 288-8177 Exts. 217/294 or Access Center (Janus Youth) (503) 432-3986.",
            "address": "5135 NE Columbia Blvd.",
            "hours": "9a.m.-6p.m. Bus service; 75",
            "name": "Native American Youth and Family Services (NAYA)",
            "notes": "Native American Youth and Family Services (NAYA) 5135 NE Columbia Blvd. Portland OR 97218 Call for eligibility pre-screen. (503) 288-8177 Exts. 217/294 or Access Center (Janus Youth) (503) 432-3986. http://www.nayapdx.org 9a.m.-6p.m. Bus service; 75 Transit: 75 NAYA offers youth ages 13-24 who are homeless referrals into homeless youth continuum. Services include: shelter, outreach and engagement, skills development, and connection to basic needs.",
            "url": "http://www.nayapdx.org",
            "city": "Portland"
        },
        {
            "zip": "97205",
            "phone": "503-517-3904",
            "address": "820 SW Oak St.",
            "name": "New Avenues for Youth",
            "notes": "New Avenues for Youth 820 SW Oak St. Portland OR 97205 503-517-3904 http://www.newavenues.org Transit: MAX Ages 17-24 for alternative school, transitional housing, hygiene, laundry and day services. Drop-in hours daily at Alternative school, 11-6 p.m. Mon., Wed., Sat. Hygiene services, laundry. Meals: 9-10 a.m., 1-2 p.m., 5-6 p.m. Mon-Fri., 11-noon, 5-6 p.m.",
            "url": "http://www.newavenues.org",
            "city": "Portland"
        },
        {
            "zip": "97205-1703",
            "phone": "503-535-3800",
            "address": "1132 SW 13th Ave.",
            "hours": "1-8 p.m. Sunday-Friday.",
            "name": "Outside-In",
            "notes": "Outside-In 1132 SW 13th Ave. Portland OR 97205-1703 503-535-3800 http://www.outsidein.org 1-8 p.m. Sunday-Friday. Transit: Fareless square. Day services provide safety off the streets, food, crisis counseling and; employment services to increase work readiness, obtain and retain employment; education component helps youth obtain their GED and enter college. Transitional housing to qualified candidates.",
            "url": "http://www.outsidein.org",
            "city": "Portland"
        },
        {
            "zip": "97209",
            "phone": "503-228-6677",
            "address": "338 NW 6th",
            "hours": "8:30 a.m.-2 p.m., Tuesday-Friday",
            "notes": "p:ear 338 NW 6th Portland OR 97209 503-228-6677 http://www.pearmentor.org 8:30 a.m.-2 p.m., Tuesday-Friday Transit: MAX, 9, 17, 33, 44 Ages 15-23 for education: GED preparation and other basic academic skills. Programs are taught by p:ear staff and a group of artists in the area of creative writing, photography, painting, sculpture, etc.. Recreation program takes youth to non-urban, natural settings.",
            "url": "http://www.pearmentor.org",
            "city": "Portland"
        },
        {
            "zip": "97266-2723",
            "phone": "503-286-9350 ext. 254",
            "address": "4816 SE 92nd Ave.",
            "hours": "M-F 8:00a.m.-4:00p.m.",
            "name": "Portland Youth Builders",
            "notes": "Portland Youth Builders 4816 SE 92nd Ave. Portland OR 97266-2723 503-286-9350 ext. 254 http://www.pybpdx.org M-F 8:00a.m.-4:00p.m. Transit: 17, Max Green Helps youths ages 17-24 to finish school and get job skills. Sessions begin quarterly. Interested youth should attend informational meeting on Thurs. at 1p.m.",
            "url": "http://www.pybpdx.org",
            "city": "Portland"
        },
        {
            "phone": "503-517-3904",
            "address": "820 SW Oak St.",
            "name": "Road Warriors (New Avenues for Youth)",
            "notes": "Road Warriors (New Avenues for Youth) 820 SW Oak St. Portland OR 503-517-3904 hours:At Outside In, 8-10 p.m. Sundays, 1132 SW 13th Ave. At New Avenues for Youth, 8-10 p.m., Wed. and Thur. 314 SW 9th Ave. Late night drop-in for youth & young adults 25 and younger (movies, first aid & hygiene supplies, showers, etc).",
            "city": "Portland"
        },
        {
            "phone": "503-224-4339",
            "address": "820 SW Oak St.",
            "hours": "At Outside In, 8-10 p.m. Sundays, 1132 SW 13th Ave.; At New Avenues for Youth, 7p.m.-9p.m., 820 SW Oak Ave.",
            "name": "Road Warriors (New Avenues for Youth)",
            "notes": "Road Warriors (New Avenues for Youth) 820 SW Oak St. Portland OR 503-224-4339 At Outside In, 8-10 p.m. Sundays, 1132 SW 13th Ave.; At New Avenues for Youth, 7p.m.-9p.m., 820 SW Oak Ave. Late night drop-in for youth & young adults 25 and younger (movies, first aid & hygiene supplies, showers, etc).",
            "city": "Portland"
        },
        {
            "phone": "503-442-4757 After hours crisis line 503-542-2389",
            "hours": "24-hours",
            "name": "Safe Place for Youth",
            "notes": "Safe Place for Youth 503-442-4757 After hours crisis line 503-542-2389 http://www.boysandgirlsaid.org 24-hours Shelter and supportive service for homeless, runaway and at-risk youth ages 14-17, food and basic needs assistance, case management and referrals to community resources.",
            "url": "http://www.boysandgirlsaid.org"
        },
        {
            "zip": "97212",
            "phone": "503-872-9664 503-969-2266",
            "address": "2406 NE Sandy Blvd. Ste. 100",
            "hours": "4-9 p.m. Weds, Fri. & Sat.",
            "name": "Sexual and Gender Minority Youth Resource Center",
            "notes": "Sexual and Gender Minority Youth Resource Center 2406 NE Sandy Blvd. Ste. 100 Portland OR 97212 503-872-9664 503-969-2266 http://www.smyrc.org 4-9 p.m. Weds, Fri. & Sat. Transit: 12 GLBTQI ages 12-23; H.I.V. prevention, employment and drop in center. counseling available for all ages by appointment only.",
            "url": "http://www.smyrc.org",
            "city": "Portland"
        },
        {
            "zip": "97211-5802",
            "phone": "503-331-1244",
            "address": "1732 NE Alberta St.",
            "name": "Sisters in Action for Power",
            "notes": "Sisters in Action for Power 1732 NE Alberta St. Portland OR 97211-5802 503-331-1244 hours:9 a.m. to 6 p.m., Monday-Thursday, 9am - noon, Friday Develop the leadership, organizing and critical analysis skills of low income women and girls ages 10-18 in North and Northeast Portland. Volunteer opportunities: transportation, fundraising, event set up/clean up, Web site design",
            "city": "Portland"
        },
        {
            "zip": "97267",
            "phone": "503 496 1160 x11 youth can ask for Jackie Curry to set up a screening",
            "address": "8050 SE Roots Rd",
            "hours": "call for intake",
            "name": "Springwater Transitional Living",
            "notes": "Springwater Transitional Living 8050 SE Roots Rd Portland OR 97267 503 496 1160 x11 youth can ask for Jackie Curry to set up a screening http://www.theinnhome.org call for intake Transit: Bus 29, 75 Offering transitional living, case management, resources and referrals to youth 16-21 years old. Youth must have lived or gone to school in Clackamas County.",
            "url": "http://www.theinnhome.org",
            "city": "Portland"
        },
        {
            "zip": "97205-1811",
            "phone": "503-224-5988",
            "address": "1635 SW Alder St.",
            "hours": "Porchlight opens at 8:45 p.m.-8:30 a.m., Streetlight opens at 9 p.m.-9a.m.",
            "notes": "Street Light / Porch Light Youth Shelter 1635 SW Alder St. Portland OR 97205-1811 503-224-5988 Porchlight opens at 8:45 p.m.-8:30 a.m., Streetlight opens at 9 p.m.-9a.m. Street Light provides short-term housing for 30 homeless youth, ages 13 to 23, up to 1 year. Need reservation. Porch Light provides Emergency housing for 30 youth, ages 13 to 20, who are new to the streets or in immediate need of shelter and aid. Beds are distributed on a first-come-first-serve basis nightly through the Access Center 503-432-3986, and youth are expected to work on securing permanent housing.",
            "city": "Portland"
        },
        {
            "zip": "97205",
            "phone": "503-350-7268",
            "address": "909 SW 11th Ave",
            "hours": "6-8:30 p.m., Sun., Mon. and Thursday.",
            "name": "Transitional Youth",
            "notes": "Transitional Youth 909 SW 11th Ave Portland OR 97205 503-350-7268 http://www.transitionalyouth.org 6-8:30 p.m., Sun., Mon. and Thursday. Transit: 4, 14, 33, Max Green Helps homeless youth obtain self-sufficiency through housing, outreach and support with a faith-based approach.",
            "url": "http://www.transitionalyouth.org",
            "city": "Portland"
        },
        {
            "zip": "97124-3072",
            "phone": "503-846-4528",
            "address": "155 N First Avenue Suite160",
            "hours": "Call for hours.",
            "name": "Washington County Intensive Service Array for Youth",
            "notes": "Washington County Intensive Service Array for Youth 155 N First Avenue Suite160 Hillsboro OR 97124-3072 503-846-4528 http://www.co.washington.or.us/HHS/MentalHealth/Treatment/children-intensive-ser... Call for hours. Transit: Max Blue to Hatfield Government Center The Intensive Services Array program provides care coordination and wraparound treatment planning for eligible youth. Services may include community based treatment, day treatment, treatment foster care, respite, psychiatric residential treatment, and flexibly tailored services.",
            "url": "http://www.co.washington.or.us/HHS/MentalHealth/Treatment/children-intensive-services.cfm",
            "city": "Hillsboro"
        },
        {
            "phone": "503-789-4011",
            "hours": "6:00p.m.-9:00p.m. Mobile unit downtown with outreach services 365 days.",
            "name": "Yellow Brick Road Outreach",
            "notes": "Yellow Brick Road Outreach 503-789-4011 http://www.janusyouth.org 6:00p.m.-9:00p.m. Mobile unit downtown with outreach services 365 days. First aid and hygiene supplies available. Nightly street outreach program focuses on providing information, referral and crisis intervention services directly to street-dependent youth.",
            "url": "http://www.janusyouth.org"
        },
        {
            "zip": "97045",
            "phone": "503-657-6958 Ext. 2592",
            "address": "19600 S. Molalla Ave.",
            "name": "Youth Parent Opportunity Program (YPOP)",
            "notes": "Youth Parent Opportunity Program (YPOP) 19600 S. Molalla Ave. Oregon City OR 97045 503-657-6958 Ext. 2592 Family Resource Center of Clackamas Community College. Helping young pregnant or parenting teens age 15-21 get a diploma or GED. Must enroll in community college and have referral from high-school.",
            "city": "Oregon City"
        }
    ],
    "pageUrl": "http://www.rosecityresource.org/resources/youth-services"
}
