{
    "offset": 0,
    "title": "Resources: Legal Services And Rights | rosecityresource.org",
    "legal": [
        {
            "phone": "503-227-3186, 1-888-527-2258",
            "name": "American Civil Liberties Union",
            "notes": "Advocacy organization dedicated to preserving and advancing civil liberties and civil rights. Assistance in cases that will establish precedent on important civil liberties and civil rights principals.",
            "url": "http://www.aclu-or.org"
        },
        {
            "phone": "503-655-8431",
            "name": "Clackamas County District Attorney",
            "notes": "Clackamas County District Attorney's Office represents the state in a wide range of felony and misdemeanor prosecutions. Contact office for referral to Juvenile Justice and Juvenile Crime Prevention Subcommittees; the Family Violence Coordinating Council; the Criminal Justice Council; the Multidisciplinary Child Abuse Investigation Team; and the Multidisciplinary Elder Abuse Team.",
            "url": "http://www.clackamas.us/da/"
        },
        {
            "zip": "97045-2202",
            "phone": "503-655-2518",
            "address": "421 High St. Suite 110",
            "hours": "9 a.m.-5 p.m. Mon-Fri, closed during the noon hour.",
            "name": "Clackamas County Legal Aid",
            "notes": "Serving low-income individuals and seniors in Clackamas, Hood River, Sherman, and Wasco Counties. Advice, self-help materials and representation in court on a wide range of legal issues. Call to schedule an appointment. Bus service: 33, 35, 154.",
            "url": "http://www.oregonlawhelp.org",
            "city": "Oregon City"
        },
        {
            "phone": "503-222-1111",
            "name": "Dads Against Discrimination",
            "notes": "Leave a message and your call will be returned after 7 p.m. Help with paternity options; child support for children over 18 years old, joint custody problems; and undistributed child support. Bus Service: 8, 9, 33.",
            "url": "http://www.dadsamerica.org"
        },
        {
            "phone": "503-243-2081, 1-800-452-1694",
            "address": "610 SW Broadway. Ste. 200",
            "hours": "9 a.m.-noon, 1-5 p.m. Mon-Fri.",
            "name": "Disibility Rights Oregon",
            "notes": "Advice and information about the rights of people with disabilities, including civil rights, special education, health care, rights to public and private services, guardianship and rights in care facilities. Free legal and advocacy assistance to individuals with physical or mental disability. Transit: MAX.",
            "url": "http://www.disabilityrightsoregon.org",
            "city": "Portland"
        },
        {
            "phone": "503-722-4110",
            "address": "1001 Molalla Ave. Suite 209",
            "hours": "8:30 a.m â€“ 5 p.m Mon-Thu.",
            "name": "First Time Offenders Diversion (Parrot Creek)",
            "notes": "Parrot Creek staff in local police stations (Lake Oswego, West Linn, Oregon City, Canby, Gladstone, and Milwalkie) to meet to address concerns and redirect youth Bus service: 32, 33",
            "city": "Oregon City"
        },
        {
            "zip": "97232-4800",
            "phone": "503-232-2540, 1-866-608-1212",
            "address": "401 NE 19th Ave #200",
            "hours": "8:30a.m.-5p.m. Mon.-Fri.; closed for lunch during noon hour.",
            "name": "Juvenile Rights Project",
            "notes": "Protects the rights of children and youth by providing information, referrals and advice on juvenile law. Offers legal services; family mediation; juvenile court petitions for abuse and neglect allegations, among other services. Bus service: 12, 19, 20, 70",
            "url": "http://www.jrplaw.org",
            "city": "Portland"
        },
        {
            "zip": "97205-2823",
            "phone": "503-224-4086 Public Benefits Hotline: 1-800-520-5292",
            "address": "921 SW Washington St Ste. 500",
            "hours": "9 a.m.-12, 1-5 p.m. , Monday-Friday.",
            "name": "Legal Aid Services of Oregon",
            "notes": "Drop-ins welcome. Free legal information for low-income Oregonians on a wide range of issues including family, administrative, housing, and some senior law. Transit:MAX.",
            "url": "http://www.oregonlawhelp.org",
            "city": "Portland"
        },
        {
            "phone": "503-648-7163 503-648-7723 (Tenant Hotline)",
            "address": "230 NE 2nd Ave. Suite A",
            "hours": "9 a.m.-noon and 1-5 p.m., Mon-Fri.",
            "notes": "Assistance with restraining orders for domestic violence, elder abuse, and abuse of disabled persons, stalking orders, family law issues, public benefits issues, housing issues, employment issues and tax issues. Family law services for survivors of domestic violence in divorce, custody, parenting time and modification cases. Services for farm workers. Bus service: 48, MAX blue.",
            "url": "http://www.oregonlawhelp.org",
            "city": "Hillsboro"
        },
        {
            "zip": "97071-4623",
            "phone": "503-981-5291; 1-800-662-6096 ext. 397",
            "address": "397 N First Street",
            "hours": "Monday-Friday 9am-5pm.",
            "name": "Legal Services Program for Field Workers (Woodburn)",
            "notes": "Provides free legal assistance to rural workers and farm (fruit, vegetables, plants and animals, canning, food processing, meat packing etc..) Mainly help with labor issues as claims of salary payments and provide assistance with tax problems, consumer services, and civil rights. Serving the counties of Marion, Polk, Clackamas and Multnomah mainly, but can call from another county and give the reference to the appropriate office.",
            "url": "http://www.oregonlawhelp.org",
            "city": "Woodburn"
        },
        {
            "zip": "97204-2305",
            "phone": "503-768-6500",
            "address": "310 SW 4th Ave. Suite 1018",
            "hours": "9 a.m.-5 p.m., Monday-Friday.",
            "name": "Lewis and Clark Legal Clinic",
            "notes": "New client intakes done while school is in session by appointment only. Topics include residential evictions, chapter 7 bankruptcy, child support modifications, restraining and stalking order, child support modification cases, and tax controversies with the Internal Revenue Service. Client incomes must fall within the federal poverty income guidelines.",
            "url": "http://www.lclark.edu/law/clinics/legal_clinic/",
            "city": "Portland"
        },
        {
            "zip": "97204-1110",
            "phone": "503-988-3162 For general information. 503-988-3150 For Child Support. 503-988-3222 For Victims Assistance.",
            "address": "1021 S.W. Fourth Avenue Room 600",
            "name": "Multnomah County District Attorney",
            "notes": "Bus service: Fareless Max All.",
            "url": "http://www.mcda.us",
            "city": "Portland"
        },
        {
            "phone": "503-295-2760",
            "name": "Oregon Law Center",
            "notes": "OLC provides free civil legal services to low-income people. The Portland office of OLC is not an entry point into legal services. If you need legal assistance, the first step is to contact the legal services office serving your county. If you are looking for information about civil legal problems, want to know more about an area of law that affects low income people, or want to see what forms or other legal resources are available, please visit the Oregon Law Help site."
        },
        {
            "zip": "97210",
            "phone": "503-823-2179",
            "address": "2619 NW Industrial Way Suite B4",
            "name": "Property and Evidence Division of the Portland Police Bureau",
            "url": "http://www.portlandonline.com/police/",
            "city": "Portland"
        },
        {
            "zip": "97205-2823",
            "phone": "503-224-4086",
            "address": "921 SW Washington St Suite 500",
            "hours": "1p.m.-5 p.m. Mon-Thurs.",
            "name": "Senior Law Project",
            "notes": "Free counseling in legal matters to any Multnomah County resident 60 and older, who is a U.S. citizen or legal alien. Assistance with health benefits; protection from abuse and exploitation; long term care; property issues; wills and estates. Call for consultation appointment. Fareless max.",
            "url": "http://www.oregonlawhelp.org",
            "city": "Portland"
        },
        {
            "zip": "97045",
            "phone": "503-557-9800.",
            "address": "421 High St. #210",
            "notes": "St. Andrew Legal Clinic is a community-based non-profit organization that provides quality legal services, in the area of family law, to low income individuals and families in Multnomah, Washington and Clackamas Counties.",
            "url": "http://www.salcgroup.org",
            "city": "Oregon City"
        },
        {
            "zip": "97211",
            "phone": "Multnomah County 503-281-1500. Washington County 503-648-1600. Clackamas County 503-557-9800.",
            "address": "807 NE Alberta St.",
            "hours": "Night Clinic hours: Every Wednesday and every other Tuesday, 6:30 - 9:00 pm Regular hours: Monday - Friday 9:00 am - 5:00 pm (closed noon - 1:00 pm).",
            "notes": "Provides legal services, in the area of family law, to low-income individuals and families in Multnomah, Washington and Clackamas Counties.",
            "url": "http://www.salcgroup.org",
            "city": "Portland"
        },
        {
            "phone": "Washington County 503-648-1600. Multnomah County 503-281-1500. Clackamas County 503-557-9800.",
            "address": "232 NE Lincoln, Ste. H. Hillsboro",
            "hours": "Night Clinic hours: Wednesdays, 6:30 - 9:00 pm in Washington County 3rd Thursday of each month, 6:30 - 9:00 pm in Columbia County Regular hours: Monday - Friday 9:00 am - 5:00 pm (closed noon - 1:00 pm)",
            "notes": "St. Andrew Legal Clinic is a community-based non-profit organization that provides quality legal services, in the area of family law, to low income individuals and families in Multnomah, Washington and Clackamas Counties.",
            "url": "http://www.salcgroup.org",
            "city": "Portland"
        },
        {
            "zip": "97204-1912",
            "phone": "503-988-3150",
            "address": "1120 SW 5th Ave Suite # 1530",
            "hours": "8 a.m.-5 p.m. Mon-Fri.",
            "name": "Support Enforcement Division",
            "notes": "A division of the Multnomah County District Attorney's office. Child Support Collection: payment information, out-of-state orders, modifying an order, locating the parent, establishing paternity, enforcing support, disbursement, accounting.",
            "url": "http://www.dcs.state.or.us",
            "city": "Portland"
        },
        {
            "phone": "503-228-5222",
            "address": "820 SW 2nd Ave Suite 200",
            "hours": "Hours: 8:30 a.m.-5 p.m. Mon-Fri.",
            "notes": "Social security and workers compensation legal services for injured and disabled people. Free phone consultation. Fair benefits and full compensation.",
            "url": "http://www.stc-law.com",
            "city": "Portland"
        },
        {
            "phone": "503-620-3000",
            "name": "Tel-Law (recorded info)",
            "notes": "State-wide legal referrals. The client will be given the name and phone number of an attorney in the area where they need assistance.",
            "url": "http://www.osbar.org"
        },
        {
            "phone": "503-232-2540, 1-866-608-1212",
            "address": "401 NE 19th Ave, #200",
            "hours": "Hours: 8:30 a.m.- 5 p.m. Mon.-Fri.; Closed noon-1 p.m. for lunch.",
            "notes": "Provides information or referrals on juvenille law. Provides court-appointed legal representation in juvenille court.",
            "city": "Portland"
        }
    ],
    "pageUrl": "http://www.rosecityresource.org/resources/legal-services-and-rights"
}
